{"type":"FeatureCollection","features":[{"type":"Feature","properties":{"name":"Autobaza Panait Cerna","scheduledTime":"11:50"},"geometry":{"coordinates":[24.48628976879101,47.125927115644686],"type":"Point"},"id":0},{"type":"Feature","properties":{"name":"Autogara Bistrița","scheduledTime":"12:00"},"geometry":{"coordinates":[24.484688839660407,47.13227118154171],"type":"Point"},"id":1},{"type":"Feature","properties":{"name":"Bistrița Nord","scheduledTime":"12:19"},"geometry":{"coordinates":[24.483878152854686,47.13263970424046],"type":"Point"},"id":2},{"type":"Feature","properties":{"name":"Viișoara","scheduledTime":"12:24"},"geometry":{"coordinates":[24.452871448497007,47.101759206231975],"type":"Point"},"id":3},{"type":"Feature","properties":{"name":"Sărata","scheduledTime":"12:28"},"geometry":{"coordinates":[24.429341888563613,47.08132558654384],"type":"Point"},"id":4},{"type":"Feature","properties":{"name":"Sărățel","scheduledTime":"12:33"},"geometry":{"coordinates":[24.403919981170958,47.06053118396014],"type":"Point"},"id":5},{"type":"Feature","properties":{"name":"Arcalia","scheduledTime":"12:37"},"geometry":{"coordinates":[24.3707447413027,47.08837311380458],"type":"Point"},"id":6},{"type":"Feature","properties":{"name":"Șintereag","scheduledTime":"12:53"},"geometry":{"coordinates":[24.272399283220295,47.17510554539447],"type":"Point"},"id":7},{"type":"Feature","properties":{"name":"Beclean pe Someș","scheduledTime":"13:02"},"geometry":{"coordinates":[24.182145757103058,47.17668698631891],"type":"Point"},"id":8},{"type":"Feature","properties":{"name":"Autogara Beclean (str. Bobâlna)","scheduledTime":"13:15"},"geometry":{"coordinates":[24.180484435023544,47.17637728656888],"type":"Point"},"id":9},{"type":"Feature","properties":{"name":"Str. Toamnei","scheduledTime":"13:40"},"geometry":{"coordinates":[24.1591128240606,47.1736294211361],"type":"Point"},"id":10},{"type":"Feature","properties":{},"geometry":{"coordinates":[[24.486334926445892,47.12594683849872],[24.486538974721526,47.12605096255814],[24.485732498202537,47.126705451979575],[24.485368126280633,47.126517039183426],[24.485171365441886,47.12671536842353],[24.485037370247625,47.1269135555919],[24.486291776225357,47.12752982285107],[24.484137395633724,47.129214235100875],[24.48526095440991,47.129974219100575],[24.483541889136603,47.13117588052381],[24.48487489866659,47.132141723115126],[24.484393444591404,47.13244529399421],[24.48387284790863,47.13263702207763],[24.482643770024964,47.13176891440193],[24.47820829075019,47.1289158248006],[24.474259422958255,47.12489346814951],[24.46510742534403,47.1151766159208],[24.452877534275814,47.101697659013865],[24.4403497226632,47.091205547633706],[24.428828580378138,47.08082879562309],[24.420789022544568,47.062078547489904],[24.411035150894122,47.05911180234233],[24.39836575866272,47.06185792857795],[24.39436925535375,47.062778893995784],[24.374080781426983,47.08426920030831],[24.363882446968148,47.09686583478094],[24.334346663168446,47.1084888480668],[24.308390408368126,47.11837235490242],[24.299624910324894,47.137475845511375],[24.2937177355993,47.14005781338835],[24.28787838984502,47.148099145353314],[24.286580647273013,47.161041632869455],[24.27131747937696,47.176059522595295],[24.264622498202954,47.18048414480171],[24.24145847859961,47.18200687151628],[24.21726523735103,47.18335668128765],[24.209222372586822,47.18276571920009],[24.201397156240972,47.18560213884362],[24.197615326262536,47.18648834430414],[24.1941365604593,47.18554318541635],[24.19061502250358,47.18114054055084],[24.18538979175341,47.17794622455946],[24.181856277589162,47.176575538583535],[24.180428628955553,47.17638899594442],[24.179755323938736,47.17760268924991],[24.178562560553104,47.179505590523405],[24.175295454933945,47.178825791125035],[24.17000585535959,47.17535112493826],[24.168183388279232,47.174384220866415],[24.161693627456486,47.17492810657333],[24.15834171719945,47.175484532407324],[24.159092101986232,47.17351169427448]],"type":"LineString"}}]}