{"type":"FeatureCollection","features":[{"type":"Feature","properties":{"name":"68 PANAIT CERNA","scheduledTime":"18:00"},"geometry":{"coordinates":[24.486483090576087,47.12571493708276],"type":"Point"},"id":0},{"type":"Feature","properties":{"name":"21 INDEPENDENTEI MAT","scheduledTime":"18:02"},"geometry":{"coordinates":[24.480539547909046,47.124662826872026],"type":"Point"},"id":1},{"type":"Feature","properties":{"name":"116 SIGMIRULUI","scheduledTime":"18:03"},"geometry":{"coordinates":[24.477106130183273,47.123485845390235],"type":"Point"},"id":2},{"type":"Feature","properties":{"name":"87 SIGMIRULUI","scheduledTime":"18:04"},"geometry":{"coordinates":[24.46967129492151,47.12746541792049],"type":"Point"},"id":3},{"type":"Feature","properties":{"name":"117 CALEA CLUJULUI","scheduledTime":"18:05"},"geometry":{"coordinates":[24.467105518070213,47.12798564147286],"type":"Point"},"id":4},{"type":"Feature","properties":{"name":"118 SOARELUI","scheduledTime":"18:06"},"geometry":{"coordinates":[24.46213642478429,47.12433921634988],"type":"Point"},"id":5},{"type":"Feature","properties":{"name":"119 SOARELUI","scheduledTime":"18:07"},"geometry":{"coordinates":[24.455157882103492,47.1247672763061],"type":"Point"},"id":6},{"type":"Feature","properties":{"name":"120 SOARELUI","scheduledTime":"18:08"},"geometry":{"coordinates":[24.44791216732756,47.12607479503873],"type":"Point"},"id":7},{"type":"Feature","properties":{"name":"121 SIGMIR","scheduledTime":"18:09"},"geometry":{"coordinates":[24.437995413204362,47.12948121501316],"type":"Point"},"id":8},{"type":"Feature","properties":{"name":"122 SIGMIR","scheduledTime":"18:10"},"geometry":{"coordinates":[24.430714807704362,47.13067453653352],"type":"Point"},"id":9},{"type":"Feature","properties":{"name":"Sigmir-centru","scheduledTime":"18:10"},"geometry":{"coordinates":[24.423520189015107,47.13368847184691],"type":"Point"},"id":10},{"type":"Feature","properties":{"name":"Sigmir-capat","scheduledTime":"18:13"},"geometry":{"coordinates":[24.41532531669114,47.132557958920074],"type":"Point"},"id":11},{"type":"Feature","properties":{},"geometry":{"coordinates":[[24.486564584464134,47.12576320491192],[24.485976229172223,47.125556146636086],[24.48504297595005,47.12539049943575],[24.483734392628833,47.12632225822969],[24.4798999391748,47.12429997582262],[24.47794072647099,47.12329655912771],[24.477570144737058,47.123250245415846],[24.475293714083932,47.12425370014134],[24.47422734623754,47.124963825893985],[24.467672826792295,47.12850533221635],[24.46343261106881,47.12468862526154],[24.46305235352682,47.12434477158186],[24.46189593105612,47.12425504403595],[24.460526483395654,47.12367526239663],[24.4589135783703,47.12349580489385],[24.45549503124468,47.12457254082716],[24.450564211915122,47.12581126128737],[24.443502800278964,47.12640070138383],[24.438533658757223,47.12916987025994],[24.43692202451163,47.129947513597784],[24.43140192884718,47.13045420970718],[24.426962486830035,47.131576872125294],[24.426451366861727,47.13253061980916],[24.42363290531827,47.13369297667336],[24.420231996892596,47.13216074021258],[24.418727843841282,47.13074997255734],[24.415485882894927,47.132518393671546]],"type":"LineString"}}]}